Date,Day,StartTime,EndTime,Activity,Location,Category,Cost,MapLink,BookingLink,OfficialLink,Description,Lat,Lng,Transit,PlanB
2026-04-12,10,00:00,08:30,수면,Prague Marriott,Accommodation,0,"https://www.google.com/maps/search/?api=1&query=50.08,14.43",,,,50.0885,14.4315,,
2026-04-12,10,08:30,11:30,프라하 성,Prague Castle,Sightseeing,15,"https://www.google.com/maps/search/?api=1&query=50.09,14.4",,,세계 최대 고성 단지,50.0905,14.4005,트램,
2026-04-12,10,11:30,13:30,점심: 나셰 마소,Naše Maso,Food,25,"https://www.google.com/maps/search/?api=1&query=50.09,14.42",,,정육점 햄버거와 육회,50.0905,14.4275,도보,
2026-04-12,10,13:30,18:30,페트린 언덕,Petrin,Sightseeing,10,"https://www.google.com/maps/search/?api=1&query=50.08,14.39",,,"푸니쿨라, 전경 감상",50.0825,14.3965,푸니쿨라,
2026-04-12,10,18:30,19:30,저녁: 미슐랭 Field,Field,Food,100,"https://www.google.com/maps/search/?api=1&query=50.09,14.42",,,파인다이닝 (18:30 예약 필수),50.0925,14.4215,도보,
2026-04-12,10,19:30,23:59,카를교 야경,Charles Bridge,Sightseeing,0,"https://www.google.com/maps/search/?api=1&query=50.08,14.41",,,야경 감상 후 귀가,50.0865,14.4115,도보,
