Date,Day,StartTime,EndTime,Activity,Location,Category,Cost,MapLink,BookingLink,OfficialLink,Description,Lat,Lng,Transit,PlanB
2026-04-16,14,08:30,11:30,피렌체 이동,Firenze S.M.N.,Transport,30,"https://www.google.com/maps/search/?api=1&query=43.7765,11.2478",,,베네치아 ➔ 피렌체 고속열차,43.7765,11.2478,기차: Frecciarossa,
2026-04-16,14,11:30,13:30,점심 식사: 카살링가,Trattoria Casalinga,Food,45,"https://www.google.com/maps/search/?api=1&query=43.7675,11.2485",,,현지인 1위 가정식 (11:30 오픈런),43.7675,11.2485,도보,
2026-04-16,14,13:30,15:00,숙소 체크인,Hotel Spadai,Accommodation,220,"https://www.google.com/maps/search/?api=1&query=43.7735,11.2555",,,피렌체 2박 3일 시작,43.7735,11.2555,도보,
2026-04-16,14,15:00,18:00,우피치 미술관,Uffizi Gallery,Sightseeing,30,"https://www.google.com/maps/search/?api=1&query=43.7677,11.2553",,,르네상스 걸작 도슨트 투어,43.7677,11.2553,도보,
2026-04-16,14,18:30,20:30,저녁 식사: 부카 라피,Buca Lapi,Food,100,"https://www.google.com/maps/search/?api=1&query=43.7725,11.2515",,,인생 티본 스테이크 (18:30 예약),43.7725,11.2515,도보,
2026-04-16,14,20:30,23:59,베키오 다리 야경,Ponte Vecchio,Sightseeing,0,"https://www.google.com/maps/search/?api=1&query=43.7679,11.2531",,,낭만적인 다리 산책,43.7679,11.2531,도보,
